[
  {
    "id": "p1",
    "title": "Forest Waterfall",
    "image": {
      "id": "p1",
      "src": "forest-waterfall.jpg",
      "alt": "A tranquil forest with a cascading waterfall amidst greenery."
    },
    "lat": 44.5588,
    "lon": -80.344
  },
  {
    "id": "p2",
    "title": "Sahara Desert Dunes",
    "image": {
      "id": "p2",
      "src": "desert-dunes.jpg",
      "alt": "Golden dunes stretching to the horizon in the Sahara Desert."
    },
    "lat": 25.0,
    "lon": 0.0
  },
  {
    "id": "p3",
    "title": "Himalayan Peaks",
    "image": {
      "id": "p3",
      "src": "majestic-mountains.jpg",
      "alt": "The sun setting behind snow-capped peaks of majestic mountains."
    },
    "lat": 27.9881,
    "lon": 86.925
  },
  {
    "id": "p4",
    "title": "Caribbean Beach",
    "image": {
      "id": "p4",
      "src": "caribbean-beach.jpg",
      "alt": "Pristine white sand and turquoise waters of a Caribbean beach."
    },
    "lat": 18.2208,
    "lon": -66.5901
  },
  {
    "id": "p5",
    "title": "Ancient Grecian Ruins",
    "image": {
      "id": "p5",
      "src": "ruins.jpg",
      "alt": "Historic ruins standing tall against the backdrop of the Grecian sky."
    },
    "lat": 37.9715,
    "lon": 23.7257
  },
  {
    "id": "p6",
    "title": "Amazon Rainforest Canopy",
    "image": {
      "id": "p6",
      "src": "rainforest.jpg",
      "alt": "Lush canopy of a rainforest, teeming with life."
    },
    "lat": -3.4653,
    "lon": -62.2159
  },
  {
    "id": "p7",
    "title": "Northern Lights",
    "image": {
      "id": "p7",
      "src": "northern-lights.jpg",
      "alt": "Dazzling display of the Northern Lights in a starry sky."
    },
    "lat": 64.9631,
    "lon": -19.0208
  },
  {
    "id": "p8",
    "title": "Japanese Temple",
    "image": {
      "id": "p8",
      "src": "japanese-temple.jpg",
      "alt": "Ancient Japanese temple surrounded by autumn foliage."
    },
    "lat": 34.9949,
    "lon": 135.785
  },
  {
    "id": "p9",
    "title": "Great Barrier Reef",
    "image": {
      "id": "p9",
      "src": "great-barrier-reef.jpg",
      "alt": "Vibrant coral formations of the Great Barrier Reef underwater."
    },
    "lat": -18.2871,
    "lon": 147.6992
  },
  {
    "id": "p10",
    "title": "Parisian Streets",
    "image": {
      "id": "p10",
      "src": "parisian-streets.jpg",
      "alt": "Charming streets of Paris with historic buildings and cafes."
    },
    "lat": 48.8566,
    "lon": 2.3522
  },
  {
    "id": "p11",
    "title": "Grand Canyon",
    "image": {
      "id": "p11",
      "src": "grand-canyon.jpg",
      "alt": "Expansive view of the deep gorges and ridges of the Grand Canyon."
    },
    "lat": 36.1069,
    "lon": -112.1129
  },
  {
    "id": "p12",
    "title": "Venetian Canals",
    "image": {
      "id": "p12",
      "src": "venetian-canals.jpg",
      "alt": "Glistening waters of the Venetian canals as gondolas glide by at sunset."
    },
    "lat": 45.4408,
    "lon": 12.3155
  },
  {
    "id": "p13",
    "title": "Taj Mahal",
    "image": {
      "id": "p13",
      "src": "taj-mahal.jpg",
      "alt": "The iconic Taj Mahal reflecting in its surrounding waters during sunrise."
    },
    "lat": 27.1751,
    "lon": 78.0421
  },
  {
    "id": "p14",
    "title": "Kerala Backwaters",
    "image": {
      "id": "p14",
      "src": "kerala-backwaters.jpg",
      "alt": "Tranquil waters and lush greenery of the Kerala backwaters."
    },
    "lat": 9.4981,
    "lon": 76.3388
  },
  {
    "id": "p15",
    "title": "African Savanna",
    "image": {
      "id": "p15",
      "src": "african-savanna.jpg",
      "alt": "Wild animals roaming freely in the vast landscapes of the African savanna."
    },
    "lat": -2.153,
    "lon": 34.6857
  },
  {
    "id": "p16",
    "title": "Victoria Falls",
    "image": {
      "id": "p16",
      "src": "victoria-falls.jpg",
      "alt": "The powerful cascade of Victoria Falls, a natural wonder between Zambia and Zimbabwe."
    },
    "lat": -17.9243,
    "lon": 25.8572
  },
  {
    "id": "p17",
    "title": "Machu Picchu",
    "image": {
      "id": "p17",
      "src": "machu-picchu.jpg",
      "alt": "The historic Incan citadel of Machu Picchu illuminated by the morning sun."
    },
    "lat": -13.1631,
    "lon": -72.545
  },
  {
    "id": "p18",
    "title": "Amazon River",
    "image": {
      "id": "p18",
      "src": "amazon-river.jpg",
      "alt": "Navigating the waters of the Amazon River, surrounded by dense rainforest."
    },
    "lat": -3.4653,
    "lon": -58.38
  }
]
